{
      "addresse": "Willy Brandt Platz 3",
      "typ": "parkhaus",
      "kapazitaet": "2000",
      "belegung":"1800",
      "geometry": { "latitude" : 50.938961923069, 
      				"longitude" : 6.9833329548588 },
      "tendenz": "1"
}

{
      "addresse": "Kalker Hauptstrasse 55",
      "typ": "parkhaus",
      "kapazitaet": "1415",
      "belegung":"653",
      "geometry": { "latitude" : 50.938166752726, 
      				"longitude" : 6.9975859581216 },
      "tendenz": "0"
}
{
      "addresse": "Breslauer Platz 2",
      "typ": "parkhaus",
      "kapazitaet": "94",
      "belegung":"93",
      "geometry": { "latitude" : 50.943542803025, 
      				"longitude" : 6.9600578042555 },
      "tendenz": "0"
}
{
      "addresse": "Alstadt Nord",
      "typ": "parkhaus",
      "kapazitaet": "150",
      "belegung":"130",
      "geometry": { "latitude" : 50.940296947302, 
      				"longitude" : 6.9596401529264 },
      "tendenz": "-1"
}
{
      "addresse": "Brueckenstrasse 13",
      "typ": "parkhaus",
      "kapazitaet": "268",
      "belegung":"126",
      "geometry": { "latitude" : 50.937442390459, 
      				"longitude" : 6.9551466076444 },
      "tendenz": "1"
}
{
      "addresse": "Hohe Strasse 30",
      "typ": "parkhaus",
      "kapazitaet": "121",
      "belegung":"12",
      "geometry": { "latitude" : 50.935551960218, 
      				"longitude" : 6.9566578441203 },
      "tendenz": "1"
}
{
      "addresse": "Maastrichter Strasse 8",
      "typ": "parkhaus",
      "kapazitaet": "277",
      "belegung":"200",
      "geometry": { "latitude" :50.938607752577, 
      				"longitude" :6.9379774149327 },
      "tendenz": "1"
}
{
      "addresse": "Spiesergasse 14",
      "typ": "parkhaus",
      "kapazitaet": "50",
      "belegung":"10",
      "geometry": { "latitude" : 50.942080034931, 
      				"longitude" : 6.9441022344973 },
      "tendenz": "-1"
}
{
      "addresse": "Caecilienstrasse 31",
      "typ": "parkhaus",
      "kapazitaet": "52",
      "belegung":"2",
      "geometry": { "latitude" : 50.934957676108, 
      				"longitude" : 6.9513660308025 },
      "tendenz": "-1"
}
{
      "addresse": "An Sankt Agatha 31",
      "typ": "parkhaus",
      "kapazitaet": "285",
      "belegung":"285",
      "geometry": { "latitude" : 50.935512130649, 
      				"longitude" : 6.9549356486054 },
      "tendenz": "-1"
}

{
      "addresse": "Marspfortengasse 10",
      "typ": "parkhaus",
      "kapazitaet": "197",
      "belegung":"197",
      "geometry": { "latitude" : 50.938818312834, 
      				"longitude" : 6.956969425138 },
      "tendenz": "0"
}

{
      "addresse": "Krebsgasse 1",
      "typ": "parkhaus",
      "kapazitaet": "134",
      "belegung":"2",
      "geometry": { "latitude" : 50.937197858712, 
      				"longitude" : 6.9498329945035 },
      "tendenz": "1"
}

{
      "addresse": "Schwertnergasse 1",
      "typ": "parkhaus",
      "kapazitaet": "59",
      "belegung":"15",
      "geometry": { "latitude" : 50.938733300316, 
      				"longitude" : 6.9522635836521},
      "tendenz": "1"
}
